[
  {
    "id": "seatoun",
    "name": "Seatoun Beach",
    "lat": -41.325,
    "lon": 174.833,
    "orientation": 60,
    "region": "wellington"
  },
  {
    "id": "lyall",
    "name": "Lyall Bay",
    "lat": -41.329,
    "lon": 174.798,
    "orientation": 180,
    "region": "wellington"
  },
  {
    "id": "makara",
    "name": "M\u0101kara Beach",
    "lat": -41.209,
    "lon": 174.712,
    "orientation": 300,
    "region": "kapiti"
  },
  {
    "id": "otaki",
    "name": "\u014ctaki Beach",
    "lat": -40.76,
    "lon": 175.148,
    "orientation": 270,
    "region": "kapiti"
  },
  {
    "id": "lakeferry",
    "name": "Lake Ferry",
    "lat": -41.349,
    "lon": 175.129,
    "orientation": 200,
    "region": "wairarapa"
  },
  {
    "id": "foxton",
    "name": "Foxton Beach",
    "lat": -40.468,
    "lon": 175.233,
    "orientation": 270,
    "region": "westcoast_north"
  },
  {
    "id": "newplymouth",
    "name": "New Plymouth (Fitzroy)",
    "lat": -39.055,
    "lon": 174.083,
    "orientation": 90,
    "region": "westcoast_north"
  },
  {
    "id": "greymouth",
    "name": "Greymouth Beach",
    "lat": -42.45,
    "lon": 171.21,
    "orientation": 270,
    "region": "westcoast_south"
  },
  {
    "id": "hokitika",
    "name": "Hokitika Beach",
    "lat": -42.717,
    "lon": 171.0,
    "orientation": 270,
    "region": "westcoast_south"
  },
  {
    "id": "papamoa",
    "name": "Papamoa Beach",
    "lat": -37.721,
    "lon": 176.324,
    "orientation": 70,
    "region": "bayofplenty"
  },
  {
    "id": "ohope",
    "name": "\u014chope Beach",
    "lat": -37.967,
    "lon": 177.074,
    "orientation": 80,
    "region": "bayofplenty"
  },
  {
    "id": "whitianga",
    "name": "Whitianga (Buffalo Beach)",
    "lat": -36.82,
    "lon": 175.704,
    "orientation": 50,
    "region": "coromandel"
  },
  {
    "id": "hahei",
    "name": "Hahei Beach",
    "lat": -36.836,
    "lon": 175.8,
    "orientation": 90,
    "region": "coromandel"
  }
]